{
"type": "FeatureCollection",
"name": "qgis-hackfests",
"features": [
{ "type": "Feature", "properties": { "year": 2005, "month": "?", "hackfest_number": "0", "place": "Karlsruhe", "notes": "Unofficial first hackfest at Linuxtag", "month_int": 1, "day_int": 1, "date_nice": "2005\/01\/01" }, "geometry": { "type": "Point", "coordinates": [ 8.403854370117188, 49.014230118337892 ] } },
{ "type": "Feature", "properties": { "year": 2009, "month": "March", "hackfest_number": "1", "place": "Hannover", "notes": "Held just before FOSSGIS", "month_int": 3, "day_int": 1, "date_nice": "2009\/03\/01" }, "geometry": { "type": "Point", "coordinates": [ 9.738006591796875, 52.374551201517249 ] } },
{ "type": "Feature", "properties": { "year": 2009, "month": "November", "hackfest_number": "2", "place": "Wien", "notes": "Werner's girlfriend Verena made awesome cake", "month_int": 11, "day_int": 1, "date_nice": "2009\/11\/01" }, "geometry": { "type": "Point", "coordinates": [ 16.3316631, 48.2376497 ] } },
{ "type": "Feature", "properties": { "year": 2010, "month": "March", "hackfest_number": "3", "place": "Pisa", "notes": "Jürgen really liked the food and there were wild boar seen on the way home from dinner", "month_int": 3, "day_int": 1, "date_nice": "2010\/03\/01" }, "geometry": { "type": "Point", "coordinates": [ 10.340194702148438, 43.736375427948587 ] } },
{ "type": "Feature", "properties": { "year": 2010, "month": "November", "hackfest_number": "4", "place": "Wrocław", "notes": "First proposal about having a certification programme. Made awesome human Q splash screen picture.", "month_int": 11, "day_int": 1, "date_nice": "2010\/11\/01" }, "geometry": { "type": "Point", "coordinates": [ 17.034988403320312, 51.108695514831865 ] } },
{ "type": "Feature", "properties": { "year": 2011, "month": "April", "hackfest_number": "5", "place": "Lisboa", "notes": "Everyone in the hackfest got lost trying to find the venue. Five left handed geeks landed up at the same table!", "month_int": 4, "day_int": 1, "date_nice": "2011\/04\/01" }, "geometry": { "type": "Point", "coordinates": [ -9.160455576580432, 38.733038524087995 ] } },
{ "type": "Feature", "properties": { "year": 2011, "month": "November", "hackfest_number": "6", "place": "Zürich", "notes": "First 'working' version of QGIS for Android made", "month_int": 11, "day_int": 1, "date_nice": "2011\/11\/01" }, "geometry": { "type": "Point", "coordinates": [ 8.507494926452637, 47.408399290981784 ] } },
{ "type": "Feature", "properties": { "year": 2012, "month": "April", "hackfest_number": "7", "place": "Lyon", "notes": "Tim stayed up till 4am hacking then nearly missed his flight!", "month_int": 4, "day_int": 1, "date_nice": "2012\/04\/01" }, "geometry": { "type": "Point", "coordinates": [ 4.831924438476562, 45.758062221258413 ] } },
{ "type": "Feature", "properties": { "year": 2012, "month": "October", "hackfest_number": "8", "place": "Essen", "notes": "First hackfest in Essen, first hackfest for Matthias, Geometry v2 was introduced.", "month_int": 10, "day_int": 1, "date_nice": "2012\/10\/01" }, "geometry": { "type": "Point", "coordinates": [ 7.112553030272008, 51.430481213249188 ] } },
{ "type": "Feature", "properties": { "year": 2013, "month": "April", "hackfest_number": "9", "place": "Valmiera", "notes": "Lots of socialising on the lovely walk to and from the hackfest venue each day", "month_int": 4, "day_int": 1, "date_nice": "2013\/04\/01" }, "geometry": { "type": "Point", "coordinates": [ 25.386449569327571, 57.543518905433167 ] } },
{ "type": "Feature", "properties": { "year": 2013, "month": "September", "hackfest_number": "10", "place": "Brighton", "notes": "New QGIS website theme was introduced. We launched QGIS 2.0 at FOSS4G after the hackfest! Get mapping get mapping!", "month_int": 9, "day_int": 1, "date_nice": "2013\/09\/01" }, "geometry": { "type": "Point", "coordinates": [ -0.088517781844579, 50.866844644193002 ] } },
{ "type": "Feature", "properties": { "year": 2014, "month": "April", "hackfest_number": "11", "place": "Wien", "notes": "Combined OSGEO and QGIS Hackfest. 140GB of data used.", "month_int": 4, "day_int": 1, "date_nice": "2014\/04\/01" }, "geometry": { "type": "Point", "coordinates": [ 16.4561299, 48.2289883 ] } },
{ "type": "Feature", "properties": { "year": 2014, "month": "October", "hackfest_number": "12", "place": "Essen", "notes": "Second Linux Hotel hackfest! We introduced plans for QGIS LTR Releases.", "month_int": 10, "day_int": 1, "date_nice": "2014\/10\/01" }, "geometry": { "type": "Point", "coordinates": [ 7.112553030272008, 51.430481213249188 ] } },
{ "type": "Feature", "properties": { "year": 2015, "month": "May", "hackfest_number": "13", "place": "Nødebo", "notes": "First QGIS User Conference. We had supper in a tipi! Forest parkour was the outside activity of choice.", "month_int": 5, "day_int": 1, "date_nice": "2015\/05\/01" }, "geometry": { "type": "Point", "coordinates": [ 12.345521450042723, 55.989587335710141 ] } },
{ "type": "Feature", "properties": { "year": 2015, "month": "November", "hackfest_number": "14", "place": "Las Palmas", "notes": "Matthias and Marco were surfing at lunch break everyday....and not writing code during that time.", "month_int": 11, "day_int": 1, "date_nice": "2015\/11\/01" }, "geometry": { "type": "Point", "coordinates": [ -15.423848072810554, 28.110973325973482 ] } },
{ "type": "Feature", "properties": { "year": 2016, "month": "May", "hackfest_number": "15", "place": "Girona", "notes": "Second User Conference. First time we got to meet Nyall. Underwater drones!", "month_int": 5, "day_int": 1, "date_nice": "2016\/05\/01" }, "geometry": { "type": "Point", "coordinates": [ 2.833270297985213, 41.988282706951736 ] } },
{ "type": "Feature", "properties": { "year": 2016, "month": "August", "hackfest_number": "16", "place": "Bonn", "notes": "There were rumours of inappropriate placing of QGIS stickers on eagle statues.", "month_int": 8, "day_int": 1, "date_nice": "2016\/08\/01" }, "geometry": { "type": "Point", "coordinates": [ 7.123841309270345, 50.707627997265831 ] } },
{ "type": "Feature", "properties": { "year": 2017, "month": "April", "hackfest_number": "17", "place": "Essen", "notes": "Third Linux Hotel hackfest! QGIS Fun Run with old Tim and old trains. Sip hacking. PyQt docs concept introduced.", "month_int": 4, "day_int": 1, "date_nice": "2017\/04\/01" }, "geometry": { "type": "Point", "coordinates": [ 7.112553030272008, 51.430481213249188 ] } },
{ "type": "Feature", "properties": { "year": 2017, "month": "August", "hackfest_number": "18", "place": "Nødebo", "notes": "Third QGIS User Conference. Family hackfest with running and swimming. Marcelle sang in the palace! Dave and Mario's first hackfest.", "month_int": 8, "day_int": 1, "date_nice": "2017\/08\/01" }, "geometry": { "type": "Point", "coordinates": [ 12.345521450042723, 55.989587335710141 ] } },
{ "type": "Feature", "properties": { "year": 2018, "month": "February", "hackfest_number": "19", "place": "Funchal", "notes": "Rock on fish and bananas. We decided to move the bug tracker to GitHub.", "month_int": 2, "day_int": 1, "date_nice": "2018\/02\/01" }, "geometry": { "type": "Point", "coordinates": [ -16.931309904564817, 32.638456971694971 ] } },
{ "type": "Feature", "properties": { "year": 2018, "month": "August", "hackfest_number": "20", "place": "Zanzibar", "notes": "Maru Maru hotel in Stone Town. First African hackfest, first non-european hackfest.", "month_int": 8, "day_int": 1, "date_nice": "2018\/08\/01" }, "geometry": { "type": "Point", "coordinates": [ 39.189611077308655, -6.161726243417726 ] } },
{ "type": "Feature", "properties": { "year": 2019, "month": "March", "hackfest_number": "22", "place": "A Coruña", "notes": "Forth User Conference. Apparently a lot of tortillas were eaten, although there is no corroborating evidence for this...", "month_int": 3, "day_int": 4, "date_nice": "2019\/03\/04" }, "geometry": { "type": "Point", "coordinates": [ -8.406444810731921, 43.377522209531207 ] } },
{ "type": "Feature", "properties": { "year": 2019, "month": "August", "hackfest_number": "23", "place": "Bucharest", "notes": "A lot of us got (temporary) QGIS tattoos here.", "month_int": 8, "day_int": 23, "date_nice": "2019\/08\/23" }, "geometry": { "type": "Point", "coordinates": [ 26.101816993272479, 44.43597873093433 ] } },
{ "type": "Feature", "properties": { "year": 2022, "month": "August", "hackfest_number": "24", "place": "Firenze", "notes": "Along with the FOSS4G and SotM. Many pizzas, but hard to find the Hawaii", "month_int": 8, "day_int": 19, "date_nice": "2022\/08\/19" }, "geometry": { "type": "Point", "coordinates": [ 11.2453847, 43.8007724 ] } },
{ "type": "Feature", "properties": { "year": 2023, "month": "August", "hackfest_number": "25", "place": "'s-Hertogenbosch", "notes": "Fifth User Conference (sold out), with bossche bollen and jogging in the rain.", "month_int": 4, "day_int": 20, "date_nice": "2023\/04\/20" }, "geometry": { "type": "Point", "coordinates": [ 5.292566, 51.695442 ] } },
{ "type": "Feature", "properties": { "year": 2023, "month": "November", "hackfest_number": "26", "place": "Wien", "notes": "Aligning with other OSGeo software during OSGeo code sprint. The Big Data from Space (BiDS) conference was our side event. ;-)", "month_int": 11, "day_int": 6, "date_nice": "2023\/11\/06" }, "geometry": { "type": "Point", "coordinates": [ 16.4144871, 48.2354494 ] } },
{ "type": "Feature", "properties": { "year": 2024, "month": "September", "hackfest_number": "27", "place": "Bratislava", "notes": "Along with the 6th User Conference. Many local snacks and drinks provided, including Rožky, Kofola and Pipi.", "month_int": 9, "day_int": 11, "date_nice": "2024\/09\/11" }, "geometry": { "type": "Point", "coordinates": [ 17.114705, 48.152071 ] } }
]
}
