{
"type": "FeatureCollection",
"name": "qgis-hackfests",
"features": [
{ "type": "Feature", "properties": { "year": 2005, "month": "?", "hackfest_number": "0", "place": "Karslruhe", "notes": "Unofficialfirst hackfest at Linuxtag", "month_int": 1, "day_int": 1, "date_nice": "2005\/01\/01" }, "geometry": { "type": "Point", "coordinates": [ 8.403854370117188, 49.014230118337892 ] } },
{ "type": "Feature", "properties": { "year": 2009, "month": "March", "hackfest_number": "1", "place": "Hannover", "notes": "Held just before FOSSGIS", "month_int": 3, "day_int": 1, "date_nice": "2009\/03\/01" }, "geometry": { "type": "Point", "coordinates": [ 9.738006591796875, 52.374551201517249 ] } },
{ "type": "Feature", "properties": { "year": 2009, "month": "November", "hackfest_number": "2", "place": "Wien", "notes": "Werner's girlfriend Verena made awesome cake", "month_int": 11, "day_int": 1, "date_nice": "2009\/11\/01" }, "geometry": { "type": "Point", "coordinates": [ 16.403961181640625, 48.230619167874089 ] } },
{ "type": "Feature", "properties": { "year": 2010, "month": "March", "hackfest_number": "3", "place": "Pisa", "notes": "Jürgen really liked the food and there were wild boar seen on the way home from dinner", "month_int": 3, "day_int": 1, "date_nice": "2010\/03\/01" }, "geometry": { "type": "Point", "coordinates": [ 10.340194702148438, 43.736375427948587 ] } },
{ "type": "Feature", "properties": { "year": 2010, "month": "November", "hackfest_number": "4", "place": "Wrocław", "notes": "First proposal about having a certification programme. Made awesom human Q splashcreen picture.", "month_int": 11, "day_int": 1, "date_nice": "2010\/11\/01" }, "geometry": { "type": "Point", "coordinates": [ 17.034988403320312, 51.108695514831865 ] } },
{ "type": "Feature", "properties": { "year": 2011, "month": "April", "hackfest_number": "5", "place": "Lisboa", "notes": "Everyone in the hackfest got lost trying to find the venue. Five left handed geeks landed up at the same table!", "month_int": 4, "day_int": 1, "date_nice": "2011\/04\/01" }, "geometry": { "type": "Point", "coordinates": [ -9.160455576580432, 38.733038524087995 ] } },
{ "type": "Feature", "properties": { "year": 2011, "month": "November", "hackfest_number": "6", "place": "Zürich", "notes": "First 'working' version of QGIS for Android made", "month_int": 11, "day_int": 1, "date_nice": "2011\/11\/01" }, "geometry": { "type": "Point", "coordinates": [ 8.507494926452637, 47.408399290981784 ] } },
{ "type": "Feature", "properties": { "year": 2012, "month": "April", "hackfest_number": "7", "place": "Lyon", "notes": "Tim stayed up till 4am hacking then nearly missed his flight!", "month_int": 4, "day_int": 1, "date_nice": "2012\/04\/01" }, "geometry": { "type": "Point", "coordinates": [ 4.831924438476562, 45.758062221258413 ] } },
{ "type": "Feature", "properties": { "year": 2012, "month": "October", "hackfest_number": "8", "place": "Essen", "notes": "First hackfest in Essen, first hackfest for Matthias, Geometry v2 was introduced.", "month_int": 10, "day_int": 1, "date_nice": "2012\/10\/01" }, "geometry": { "type": "Point", "coordinates": [ 7.112553030272008, 51.430481213249188 ] } },
{ "type": "Feature", "properties": { "year": 2013, "month": "April", "hackfest_number": "9", "place": "Valmeira", "notes": "Lots of socialising on the lovely walk to and from the hackfest venue each day", "month_int": 4, "day_int": 1, "date_nice": "2013\/04\/01" }, "geometry": { "type": "Point", "coordinates": [ 25.386449569327571, 57.543518905433167 ] } },
{ "type": "Feature", "properties": { "year": 2013, "month": "September", "hackfest_number": "10", "place": "Brighton", "notes": "New QGIS website theme was introduced. We launched QGIS 2.0 at FOSS4G after the hackfest! Get mapping get mapping!", "month_int": 9, "day_int": 1, "date_nice": "2013\/09\/01" }, "geometry": { "type": "Point", "coordinates": [ -0.088517781844579, 50.866844644193002 ] } },
{ "type": "Feature", "properties": { "year": 2014, "month": "April", "hackfest_number": "11", "place": "Wien", "notes": "Combined OSGEO and QGIS Hackfest. 140GB of data used.", "month_int": 4, "day_int": 1, "date_nice": "2014\/04\/01" }, "geometry": { "type": "Point", "coordinates": [ 16.370315551757812, 48.248454577306291 ] } },
{ "type": "Feature", "properties": { "year": 2014, "month": "October", "hackfest_number": "12", "place": "Essen", "notes": "Second Linux Hotel hackfest! We introduced plans for QGIS LTR Releases.", "month_int": 10, "day_int": 1, "date_nice": "2014\/10\/01" }, "geometry": { "type": "Point", "coordinates": [ 7.112553030272008, 51.430481213249188 ] } },
{ "type": "Feature", "properties": { "year": 2015, "month": "May", "hackfest_number": "13", "place": "Nødebo", "notes": "First QGIS User Conference. We had supper in a tipi! Forest parkour was the outside activity of choice.", "month_int": 5, "day_int": 1, "date_nice": "2015\/05\/01" }, "geometry": { "type": "Point", "coordinates": [ 12.345521450042723, 55.989587335710141 ] } },
{ "type": "Feature", "properties": { "year": 2015, "month": "November", "hackfest_number": "14", "place": "Las Palmas", "notes": "Matthias and Marco were surfing at lunch break everyday....and not writing code during that time.", "month_int": 11, "day_int": 1, "date_nice": "2015\/11\/01" }, "geometry": { "type": "Point", "coordinates": [ -15.423848072810554, 28.110973325973482 ] } },
{ "type": "Feature", "properties": { "year": 2016, "month": "May", "hackfest_number": "15", "place": "Girona", "notes": "Second user conference.First time we got to meet Nyall. Underwater drones!", "month_int": 5, "day_int": 1, "date_nice": "2016\/05\/01" }, "geometry": { "type": "Point", "coordinates": [ 2.833270297985213, 41.988282706951736 ] } },
{ "type": "Feature", "properties": { "year": 2016, "month": "August", "hackfest_number": "16", "place": "Bonn", "notes": "There were rumours of inappropriate placing of QGIS stickers on eagle statues.", "month_int": 8, "day_int": 1, "date_nice": "2016\/08\/01" }, "geometry": { "type": "Point", "coordinates": [ 7.123841309270345, 50.707627997265831 ] } },
{ "type": "Feature", "properties": { "year": 2017, "month": "April", "hackfest_number": "17", "place": "Essen", "notes": "Third Linux Hotel hackfest! QGIS Fun Run with old Tim and old trains. Sip hacking. PyQt docs concept introduced.", "month_int": 4, "day_int": 1, "date_nice": "2017\/04\/01" }, "geometry": { "type": "Point", "coordinates": [ 7.112553030272008, 51.430481213249188 ] } },
{ "type": "Feature", "properties": { "year": 2017, "month": "August", "hackfest_number": "18", "place": "Nødebo", "notes": "Third QGIS User Conference. Family hackfest with running and swimming. Marcelle sang in the palace! Dave and Mario's first hackfest.", "month_int": 8, "day_int": 1, "date_nice": "2017\/08\/01" }, "geometry": { "type": "Point", "coordinates": [ 12.345521450042723, 55.989587335710141 ] } },
{ "type": "Feature", "properties": { "year": 2018, "month": "February", "hackfest_number": "19", "place": "Funchal", "notes": "Rock on fish and bananas. We decided to move the bug tracker to GitLab.", "month_int": 2, "day_int": 1, "date_nice": "2018\/02\/01" }, "geometry": { "type": "Point", "coordinates": [ -16.931309904564817, 32.638456971694971 ] } },
{ "type": "Feature", "properties": { "year": 2018, "month": "August", "hackfest_number": "20", "place": "Zanzibar", "notes": "Maru Maru hotel in Stone Town. First African hackfest, first non-european hackfest.", "month_int": 8, "day_int": 1, "date_nice": "2018\/08\/01" }, "geometry": { "type": "Point", "coordinates": [ 39.189611077308655, -6.161726243417726 ] } }
]
}
